{
"type": "FeatureCollection",
"name": "Fall_2025_Stop_Summary_(M1)",
"crs": { "type": "name", "properties": { "name": "urn:ogc:def:crs:OGC:1.3:CRS84" } },
"features": [
{ "type": "Feature", "properties": { "FID": 1, "Mode": "Heavy Rail", "Route": "M1", "Direction": "Northbound", "Stop_Code": 1892, "Stop": "Bridgeport", "Lat": 40.104942, "Lon": -75.348098, "Sign_Up": "Fall 2025", "WK_Ons": 17, "WK_Offs": 89, "Sat_Ons": 5, "Sat_Offs": 37, "Sun_Ons": 9, "Sun_Offs": 24 }, "geometry": { "type": "Point", "coordinates": [ -75.348098, 40.104942 ] } },
{ "type": "Feature", "properties": { "FID": 2, "Mode": "Heavy Rail", "Route": "M1", "Direction": "Northbound", "Stop_Code": 1895, "Stop": "Gulph Mills", "Lat": 40.070846, "Lon": -75.342277, "Sign_Up": "Fall 2025", "WK_Ons": 34, "WK_Offs": 293, "Sat_Ons": 12, "Sat_Offs": 117, "Sun_Ons": 10, "Sun_Offs": 69 }, "geometry": { "type": "Point", "coordinates": [ -75.342277, 40.070846 ] } },
{ "type": "Feature", "properties": { "FID": 3, "Mode": "Heavy Rail", "Route": "M1", "Direction": "Northbound", "Stop_Code": 1900, "Stop": "Stadium", "Lat": 40.032699, "Lon": -75.340728, "Sign_Up": "Fall 2025", "WK_Ons": 12, "WK_Offs": 98, "Sat_Ons": 5, "Sat_Offs": 74, "Sun_Ons": 5, "Sun_Offs": 44 }, "geometry": { "type": "Point", "coordinates": [ -75.340728, 40.032699 ] } },
{ "type": "Feature", "properties": { "FID": 4, "Mode": "Heavy Rail", "Route": "M1", "Direction": "Northbound", "Stop_Code": 1902, "Stop": "Roberts Rd", "Lat": 40.0214, "Lon": -75.33023, "Sign_Up": "Fall 2025", "WK_Ons": 14, "WK_Offs": 68, "Sat_Ons": 14, "Sat_Offs": 45, "Sun_Ons": 4, "Sun_Offs": 23 }, "geometry": { "type": "Point", "coordinates": [ -75.33023, 40.0214 ] } },
{ "type": "Feature", "properties": { "FID": 5, "Mode": "Heavy Rail", "Route": "M1", "Direction": "Northbound", "Stop_Code": 1908, "Stop": "Beechwood-Brookline", "Lat": 39.986549, "Lon": -75.29145, "Sign_Up": "Fall 2025", "WK_Ons": 14, "WK_Offs": 90, "Sat_Ons": 7, "Sat_Offs": 12, "Sun_Ons": 6, "Sun_Offs": 15 }, "geometry": { "type": "Point", "coordinates": [ -75.29145, 39.986549 ] } },
{ "type": "Feature", "properties": { "FID": 6, "Mode": "Heavy Rail", "Route": "M1", "Direction": "Northbound", "Stop_Code": 1917, "Stop": "Parkview", "Lat": 39.969024, "Lon": -75.27478, "Sign_Up": "Fall 2025", "WK_Ons": 66, "WK_Offs": 50, "Sat_Ons": 45, "Sat_Offs": 14, "Sun_Ons": 21, "Sun_Offs": 14 }, "geometry": { "type": "Point", "coordinates": [ -75.27478, 39.969024 ] } },
{ "type": "Feature", "properties": { "FID": 7, "Mode": "Heavy Rail", "Route": "M1", "Direction": "Northbound", "Stop_Code": 1918, "Stop": "Township Line Rd", "Lat": 39.974815, "Lon": -75.281532, "Sign_Up": "Fall 2025", "WK_Ons": 47, "WK_Offs": 38, "Sat_Ons": 24, "Sat_Offs": 26, "Sun_Ons": 19, "Sun_Offs": 12 }, "geometry": { "type": "Point", "coordinates": [ -75.281532, 39.974815 ] } },
{ "type": "Feature", "properties": { "FID": 8, "Mode": "Heavy Rail", "Route": "M1", "Direction": "Northbound", "Stop_Code": 1919, "Stop": "Penfield", "Lat": 39.980995, "Lon": -75.283935, "Sign_Up": "Fall 2025", "WK_Ons": 39, "WK_Offs": 83, "Sat_Ons": 7, "Sat_Offs": 19, "Sun_Ons": 12, "Sun_Offs": 7 }, "geometry": { "type": "Point", "coordinates": [ -75.283935, 39.980995 ] } },
{ "type": "Feature", "properties": { "FID": 9, "Mode": "Heavy Rail", "Route": "M1", "Direction": "Northbound", "Stop_Code": 1921, "Stop": "Wynnewood Rd", "Lat": 39.9934, "Lon": -75.298187, "Sign_Up": "Fall 2025", "WK_Ons": 19, "WK_Offs": 78, "Sat_Ons": 14, "Sat_Offs": 26, "Sun_Ons": 6, "Sun_Offs": 15 }, "geometry": { "type": "Point", "coordinates": [ -75.298187, 39.9934 ] } },
{ "type": "Feature", "properties": { "FID": 10, "Mode": "Heavy Rail", "Route": "M1", "Direction": "Northbound", "Stop_Code": 1923, "Stop": "Ardmore Av", "Lat": 39.999935, "Lon": -75.309417, "Sign_Up": "Fall 2025", "WK_Ons": 24, "WK_Offs": 45, "Sat_Ons": 11, "Sat_Offs": 22, "Sun_Ons": 8, "Sun_Offs": 19 }, "geometry": { "type": "Point", "coordinates": [ -75.309417, 39.999935 ] } },
{ "type": "Feature", "properties": { "FID": 11, "Mode": "Heavy Rail", "Route": "M1", "Direction": "Northbound", "Stop_Code": 1924, "Stop": "Haverford South", "Lat": 40.00983, "Lon": -75.315093, "Sign_Up": "Fall 2025", "WK_Ons": 13, "WK_Offs": 97, "Sat_Ons": 9, "Sat_Offs": 32, "Sun_Ons": 14, "Sun_Offs": 27 }, "geometry": { "type": "Point", "coordinates": [ -75.315093, 40.00983 ] } },
{ "type": "Feature", "properties": { "FID": 12, "Mode": "Heavy Rail", "Route": "M1", "Direction": "Northbound", "Stop_Code": 1925, "Stop": "Bryn Mawr South", "Lat": 40.018085, "Lon": -75.323387, "Sign_Up": "Fall 2025", "WK_Ons": 59, "WK_Offs": 349, "Sat_Ons": 30, "Sat_Offs": 129, "Sun_Ons": 17, "Sun_Offs": 78 }, "geometry": { "type": "Point", "coordinates": [ -75.323387, 40.018085 ] } },
{ "type": "Feature", "properties": { "FID": 13, "Mode": "Heavy Rail", "Route": "M1", "Direction": "Northbound", "Stop_Code": 1927, "Stop": "Garrett Hill", "Lat": 40.027976, "Lon": -75.336357, "Sign_Up": "Fall 2025", "WK_Ons": 12, "WK_Offs": 80, "Sat_Ons": 7, "Sat_Offs": 32, "Sun_Ons": 5, "Sun_Offs": 28 }, "geometry": { "type": "Point", "coordinates": [ -75.336357, 40.027976 ] } },
{ "type": "Feature", "properties": { "FID": 14, "Mode": "Heavy Rail", "Route": "M1", "Direction": "Northbound", "Stop_Code": 1929, "Stop": "Villanova South", "Lat": 40.034084, "Lon": -75.344024, "Sign_Up": "Fall 2025", "WK_Ons": 18, "WK_Offs": 133, "Sat_Ons": 12, "Sat_Offs": 52, "Sun_Ons": 9, "Sun_Offs": 41 }, "geometry": { "type": "Point", "coordinates": [ -75.344024, 40.034084 ] } },
{ "type": "Feature", "properties": { "FID": 15, "Mode": "Heavy Rail", "Route": "M1", "Direction": "Northbound", "Stop_Code": 1930, "Stop": "Radnor South", "Lat": 40.042053, "Lon": -75.353561, "Sign_Up": "Fall 2025", "WK_Ons": 47, "WK_Offs": 206, "Sat_Ons": 24, "Sat_Offs": 96, "Sun_Ons": 14, "Sun_Offs": 76 }, "geometry": { "type": "Point", "coordinates": [ -75.353561, 40.042053 ] } },
{ "type": "Feature", "properties": { "FID": 16, "Mode": "Heavy Rail", "Route": "M1", "Direction": "Northbound", "Stop_Code": 1931, "Stop": "County Line", "Lat": 40.050064, "Lon": -75.347343, "Sign_Up": "Fall 2025", "WK_Ons": 2, "WK_Offs": 24, "Sat_Ons": 3, "Sat_Offs": 27, "Sun_Ons": 3, "Sun_Offs": 10 }, "geometry": { "type": "Point", "coordinates": [ -75.347343, 40.050064 ] } },
{ "type": "Feature", "properties": { "FID": 17, "Mode": "Heavy Rail", "Route": "M1", "Direction": "Northbound", "Stop_Code": 1932, "Stop": "Matsonford", "Lat": 40.058208, "Lon": -75.339408, "Sign_Up": "Fall 2025", "WK_Ons": 6, "WK_Offs": 30, "Sat_Ons": 6, "Sat_Offs": 14, "Sun_Ons": 2, "Sun_Offs": 16 }, "geometry": { "type": "Point", "coordinates": [ -75.339408, 40.058208 ] } },
{ "type": "Feature", "properties": { "FID": 18, "Mode": "Heavy Rail", "Route": "M1", "Direction": "Northbound", "Stop_Code": 1934, "Stop": "Hughes Park", "Lat": 40.081535, "Lon": -75.349082, "Sign_Up": "Fall 2025", "WK_Ons": 21, "WK_Offs": 141, "Sat_Ons": 17, "Sat_Offs": 51, "Sun_Ons": 11, "Sun_Offs": 47 }, "geometry": { "type": "Point", "coordinates": [ -75.349082, 40.081535 ] } },
{ "type": "Feature", "properties": { "FID": 19, "Mode": "Heavy Rail", "Route": "M1", "Direction": "Northbound", "Stop_Code": 1935, "Stop": "DeKalb St", "Lat": 40.098735, "Lon": -75.352012, "Sign_Up": "Fall 2025", "WK_Ons": 17, "WK_Offs": 145, "Sat_Ons": 12, "Sat_Offs": 49, "Sun_Ons": 8, "Sun_Offs": 37 }, "geometry": { "type": "Point", "coordinates": [ -75.352012, 40.098735 ] } },
{ "type": "Feature", "properties": { "FID": 20, "Mode": "Heavy Rail", "Route": "M1", "Direction": "Northbound", "Stop_Code": 30519, "Stop": "Ardmore Junction", "Lat": 39.996288, "Lon": -75.303657, "Sign_Up": "Fall 2025", "WK_Ons": 47, "WK_Offs": 170, "Sat_Ons": 23, "Sat_Offs": 57, "Sun_Ons": 13, "Sun_Offs": 43 }, "geometry": { "type": "Point", "coordinates": [ -75.303657, 39.996288 ] } },
{ "type": "Feature", "properties": { "FID": 21, "Mode": "Heavy Rail", "Route": "M1", "Direction": "Northbound", "Stop_Code": 30520, "Stop": "Norristown Transit Center", "Lat": 40.11346, "Lon": -75.345115, "Sign_Up": "Fall 2025", "WK_Ons": 13, "WK_Offs": 1366, "Sat_Ons": 6, "Sat_Offs": 624, "Sun_Ons": 12, "Sun_Offs": 459 }, "geometry": { "type": "Point", "coordinates": [ -75.345115, 40.11346 ] } },
{ "type": "Feature", "properties": { "FID": 22, "Mode": "Heavy Rail", "Route": "M1", "Direction": "Northbound", "Stop_Code": 30855, "Stop": "Employee Platform - Employees Only", "Lat": 39.964477, "Lon": -75.262657, "Sign_Up": "Fall 2025", "WK_Ons": 111, "WK_Offs": 29, "Sat_Ons": 63, "Sat_Offs": 9, "Sun_Ons": 45, "Sun_Offs": 1 }, "geometry": { "type": "Point", "coordinates": [ -75.262657, 39.964477 ] } },
{ "type": "Feature", "properties": { "FID": 23, "Mode": "Heavy Rail", "Route": "M1", "Direction": "Northbound", "Stop_Code": 31790, "Stop": "69th St Transit Center", "Lat": 39.96276, "Lon": -75.259155, "Sign_Up": "Fall 2025", "WK_Ons": 3062, "WK_Offs": 0, "Sat_Ons": 1221, "Sat_Offs": 0, "Sun_Ons": 865, "Sun_Offs": 0 }, "geometry": { "type": "Point", "coordinates": [ -75.259155, 39.96276 ] } },
{ "type": "Feature", "properties": { "FID": 24, "Mode": "Heavy Rail", "Route": "M1", "Direction": "Southbound", "Stop_Code": 30856, "Stop": "Employee Platform - Employees Only", "Lat": 39.964546, "Lon": -75.263313, "Sign_Up": "Fall 2025", "WK_Ons": 21, "WK_Offs": 22, "Sat_Ons": 2, "Sat_Offs": 2, "Sun_Ons": 4, "Sun_Offs": 2 }, "geometry": { "type": "Point", "coordinates": [ -75.263313, 39.964546 ] } },
{ "type": "Feature", "properties": { "FID": 25, "Mode": "Heavy Rail", "Route": "M1", "Direction": "Southbound", "Stop_Code": 32185, "Stop": "Norristown Transit Center", "Lat": 40.113475, "Lon": -75.345207, "Sign_Up": "Fall 2025", "WK_Ons": 1252, "WK_Offs": 0, "Sat_Ons": 600, "Sat_Offs": 0, "Sun_Ons": 419, "Sun_Offs": 0 }, "geometry": { "type": "Point", "coordinates": [ -75.345207, 40.113475 ] } },
{ "type": "Feature", "properties": { "FID": 26, "Mode": "Heavy Rail", "Route": "M1", "Direction": "Southbound", "Stop_Code": 32186, "Stop": "Bridgeport", "Lat": 40.104965, "Lon": -75.34819, "Sign_Up": "Fall 2025", "WK_Ons": 107, "WK_Offs": 11, "Sat_Ons": 42, "Sat_Offs": 7, "Sun_Ons": 24, "Sun_Offs": 5 }, "geometry": { "type": "Point", "coordinates": [ -75.34819, 40.104965 ] } },
{ "type": "Feature", "properties": { "FID": 27, "Mode": "Heavy Rail", "Route": "M1", "Direction": "Southbound", "Stop_Code": 32187, "Stop": "DeKalb St", "Lat": 40.098781, "Lon": -75.352111, "Sign_Up": "Fall 2025", "WK_Ons": 174, "WK_Offs": 32, "Sat_Ons": 75, "Sat_Offs": 15, "Sun_Ons": 53, "Sun_Offs": 10 }, "geometry": { "type": "Point", "coordinates": [ -75.352111, 40.098781 ] } },
{ "type": "Feature", "properties": { "FID": 28, "Mode": "Heavy Rail", "Route": "M1", "Direction": "Southbound", "Stop_Code": 32188, "Stop": "Hughes Park", "Lat": 40.081516, "Lon": -75.349174, "Sign_Up": "Fall 2025", "WK_Ons": 146, "WK_Offs": 34, "Sat_Ons": 41, "Sat_Offs": 12, "Sun_Ons": 35, "Sun_Offs": 10 }, "geometry": { "type": "Point", "coordinates": [ -75.349174, 40.081516 ] } },
{ "type": "Feature", "properties": { "FID": 29, "Mode": "Heavy Rail", "Route": "M1", "Direction": "Southbound", "Stop_Code": 32189, "Stop": "Gulph Mills", "Lat": 40.070873, "Lon": -75.342399, "Sign_Up": "Fall 2025", "WK_Ons": 268, "WK_Offs": 35, "Sat_Ons": 102, "Sat_Offs": 16, "Sun_Ons": 61, "Sun_Offs": 16 }, "geometry": { "type": "Point", "coordinates": [ -75.342399, 40.070873 ] } },
{ "type": "Feature", "properties": { "FID": 30, "Mode": "Heavy Rail", "Route": "M1", "Direction": "Southbound", "Stop_Code": 32190, "Stop": "Matsonford", "Lat": 40.05817, "Lon": -75.3395, "Sign_Up": "Fall 2025", "WK_Ons": 35, "WK_Offs": 10, "Sat_Ons": 18, "Sat_Offs": 8, "Sun_Ons": 12, "Sun_Offs": 1 }, "geometry": { "type": "Point", "coordinates": [ -75.3395, 40.05817 ] } },
{ "type": "Feature", "properties": { "FID": 31, "Mode": "Heavy Rail", "Route": "M1", "Direction": "Southbound", "Stop_Code": 32191, "Stop": "County Line", "Lat": 40.050117, "Lon": -75.347427, "Sign_Up": "Fall 2025", "WK_Ons": 27, "WK_Offs": 6, "Sat_Ons": 9, "Sat_Offs": 3, "Sun_Ons": 8, "Sun_Offs": 2 }, "geometry": { "type": "Point", "coordinates": [ -75.347427, 40.050117 ] } },
{ "type": "Feature", "properties": { "FID": 32, "Mode": "Heavy Rail", "Route": "M1", "Direction": "Southbound", "Stop_Code": 32192, "Stop": "Radnor South", "Lat": 40.042102, "Lon": -75.353683, "Sign_Up": "Fall 2025", "WK_Ons": 221, "WK_Offs": 59, "Sat_Ons": 102, "Sat_Offs": 36, "Sun_Ons": 71, "Sun_Offs": 22 }, "geometry": { "type": "Point", "coordinates": [ -75.353683, 40.042102 ] } },
{ "type": "Feature", "properties": { "FID": 33, "Mode": "Heavy Rail", "Route": "M1", "Direction": "Southbound", "Stop_Code": 32193, "Stop": "Villanova South", "Lat": 40.034004, "Lon": -75.343994, "Sign_Up": "Fall 2025", "WK_Ons": 117, "WK_Offs": 21, "Sat_Ons": 39, "Sat_Offs": 7, "Sun_Ons": 28, "Sun_Offs": 6 }, "geometry": { "type": "Point", "coordinates": [ -75.343994, 40.034004 ] } },
{ "type": "Feature", "properties": { "FID": 34, "Mode": "Heavy Rail", "Route": "M1", "Direction": "Southbound", "Stop_Code": 32194, "Stop": "Stadium", "Lat": 40.032657, "Lon": -75.340797, "Sign_Up": "Fall 2025", "WK_Ons": 112, "WK_Offs": 19, "Sat_Ons": 100, "Sat_Offs": 9, "Sun_Ons": 55, "Sun_Offs": 3 }, "geometry": { "type": "Point", "coordinates": [ -75.340797, 40.032657 ] } },
{ "type": "Feature", "properties": { "FID": 35, "Mode": "Heavy Rail", "Route": "M1", "Direction": "Southbound", "Stop_Code": 32195, "Stop": "Garrett Hill", "Lat": 40.027946, "Lon": -75.336456, "Sign_Up": "Fall 2025", "WK_Ons": 73, "WK_Offs": 6, "Sat_Ons": 44, "Sat_Offs": 6, "Sun_Ons": 25, "Sun_Offs": 8 }, "geometry": { "type": "Point", "coordinates": [ -75.336456, 40.027946 ] } },
{ "type": "Feature", "properties": { "FID": 36, "Mode": "Heavy Rail", "Route": "M1", "Direction": "Southbound", "Stop_Code": 32196, "Stop": "Roberts Rd", "Lat": 40.0214, "Lon": -75.330345, "Sign_Up": "Fall 2025", "WK_Ons": 66, "WK_Offs": 13, "Sat_Ons": 45, "Sat_Offs": 8, "Sun_Ons": 29, "Sun_Offs": 2 }, "geometry": { "type": "Point", "coordinates": [ -75.330345, 40.0214 ] } },
{ "type": "Feature", "properties": { "FID": 37, "Mode": "Heavy Rail", "Route": "M1", "Direction": "Southbound", "Stop_Code": 32197, "Stop": "Bryn Mawr South", "Lat": 40.018005, "Lon": -75.32341, "Sign_Up": "Fall 2025", "WK_Ons": 316, "WK_Offs": 50, "Sat_Ons": 131, "Sat_Offs": 32, "Sun_Ons": 76, "Sun_Offs": 24 }, "geometry": { "type": "Point", "coordinates": [ -75.32341, 40.018005 ] } },
{ "type": "Feature", "properties": { "FID": 38, "Mode": "Heavy Rail", "Route": "M1", "Direction": "Southbound", "Stop_Code": 32198, "Stop": "Haverford South", "Lat": 40.009769, "Lon": -75.315185, "Sign_Up": "Fall 2025", "WK_Ons": 101, "WK_Offs": 13, "Sat_Ons": 32, "Sat_Offs": 7, "Sun_Ons": 30, "Sun_Offs": 2 }, "geometry": { "type": "Point", "coordinates": [ -75.315185, 40.009769 ] } },
{ "type": "Feature", "properties": { "FID": 39, "Mode": "Heavy Rail", "Route": "M1", "Direction": "Southbound", "Stop_Code": 32199, "Stop": "Ardmore Av", "Lat": 39.999862, "Lon": -75.309478, "Sign_Up": "Fall 2025", "WK_Ons": 64, "WK_Offs": 16, "Sat_Ons": 29, "Sat_Offs": 9, "Sun_Ons": 22, "Sun_Offs": 8 }, "geometry": { "type": "Point", "coordinates": [ -75.309478, 39.999862 ] } },
{ "type": "Feature", "properties": { "FID": 40, "Mode": "Heavy Rail", "Route": "M1", "Direction": "Southbound", "Stop_Code": 32200, "Stop": "Ardmore Junction", "Lat": 39.996265, "Lon": -75.303794, "Sign_Up": "Fall 2025", "WK_Ons": 158, "WK_Offs": 42, "Sat_Ons": 64, "Sat_Offs": 22, "Sun_Ons": 34, "Sun_Offs": 13 }, "geometry": { "type": "Point", "coordinates": [ -75.303794, 39.996265 ] } },
{ "type": "Feature", "properties": { "FID": 41, "Mode": "Heavy Rail", "Route": "M1", "Direction": "Southbound", "Stop_Code": 32201, "Stop": "Wynnewood Rd", "Lat": 39.993377, "Lon": -75.298271, "Sign_Up": "Fall 2025", "WK_Ons": 67, "WK_Offs": 13, "Sat_Ons": 31, "Sat_Offs": 8, "Sun_Ons": 19, "Sun_Offs": 5 }, "geometry": { "type": "Point", "coordinates": [ -75.298271, 39.993377 ] } },
{ "type": "Feature", "properties": { "FID": 42, "Mode": "Heavy Rail", "Route": "M1", "Direction": "Southbound", "Stop_Code": 32202, "Stop": "Beechwood-Brookline", "Lat": 39.986484, "Lon": -75.291488, "Sign_Up": "Fall 2025", "WK_Ons": 97, "WK_Offs": 15, "Sat_Ons": 27, "Sat_Offs": 5, "Sun_Ons": 23, "Sun_Offs": 3 }, "geometry": { "type": "Point", "coordinates": [ -75.291488, 39.986484 ] } },
{ "type": "Feature", "properties": { "FID": 43, "Mode": "Heavy Rail", "Route": "M1", "Direction": "Southbound", "Stop_Code": 32203, "Stop": "Penfield", "Lat": 39.981014, "Lon": -75.284042, "Sign_Up": "Fall 2025", "WK_Ons": 114, "WK_Offs": 20, "Sat_Ons": 19, "Sat_Offs": 8, "Sun_Ons": 13, "Sun_Offs": 8 }, "geometry": { "type": "Point", "coordinates": [ -75.284042, 39.981014 ] } },
{ "type": "Feature", "properties": { "FID": 44, "Mode": "Heavy Rail", "Route": "M1", "Direction": "Southbound", "Stop_Code": 32204, "Stop": "Township Line Rd", "Lat": 39.974773, "Lon": -75.281616, "Sign_Up": "Fall 2025", "WK_Ons": 55, "WK_Offs": 23, "Sat_Ons": 22, "Sat_Offs": 10, "Sun_Ons": 15, "Sun_Offs": 3 }, "geometry": { "type": "Point", "coordinates": [ -75.281616, 39.974773 ] } },
{ "type": "Feature", "properties": { "FID": 45, "Mode": "Heavy Rail", "Route": "M1", "Direction": "Southbound", "Stop_Code": 32206, "Stop": "69th St Transit Center", "Lat": 39.962688, "Lon": -75.259155, "Sign_Up": "Fall 2025", "WK_Ons": 14, "WK_Offs": 3139, "Sat_Ons": 2, "Sat_Offs": 1339, "Sun_Ons": 2, "Sun_Offs": 897 }, "geometry": { "type": "Point", "coordinates": [ -75.259155, 39.962688 ] } },
{ "type": "Feature", "properties": { "FID": 46, "Mode": "Heavy Rail", "Route": "M1", "Direction": "Southbound", "Stop_Code": 32207, "Stop": "Parkview", "Lat": 39.968955, "Lon": -75.274848, "Sign_Up": "Fall 2025", "WK_Ons": 39, "WK_Offs": 33, "Sat_Ons": 22, "Sat_Offs": 23, "Sun_Ons": 13, "Sun_Offs": 14 }, "geometry": { "type": "Point", "coordinates": [ -75.274848, 39.968955 ] } }
]
}
